[
    {
        "id": 1,
        "name": "Access Plus Capital",
        "languages": [ "English","Spanish","Hmong" ],
        "geographicAreas": "Fresno, Inyo, Kern, Kings, Madera, Mariposa, Merced, Monterey, San Joaquin, Santa Clara, Stanislaus, Tuolumne, Tulare, Mono, ",
        "hasStatewideService": false,
        "specificCommunities": [4,1,3,2,5],
        "areasOfService": [1,2,3,6,5,4,9,10,11,12,13],
        "streetAddress": "1025 Fulton St Second Floor",
        "city": "Fresno",
        "county": "Fresno",
        "zipCode": 93721,
        "fullAddress": "1920 Mariposa St. Fresno, CA, 93721",
        "latitude": "36.73441",
        "longitude": -119.7918,
        "email": "Loans@acccesspluscapital.com ",
        "website": "https://accesspluscapital.com",
        "phoneNumber": "(559) 263-1351",
        "socialMedia": "@accesspluscap"
    },
    {
        "id": 2,
        "name": "Access SBDC",
        "languages": [ "English","Spanish","Vietnamese","Korean","Japanese","Cantonese","French","German","Farsi","Tagalog","Arabic","Hmong","Russian","Portuguese","American Sign Language" ],
        "geographicAreas": "Alameda, Alpine, Amador, Butte, Calaveras, Colusa, Contra Costa, Del Norte, El Dorado, Glenn, Humboldt, Lake, Lassen, Marin, Mendocino, Modoc, Napa, Nevada, Placer, Plumas, Sacramento, San Francisco, San Mateo, Santa Clara, Santa Cruz, Shasta, Sierra, Siskiyou, Solano, Sonoma, Tehama, Trinity, Yolo, Yuba, Sutter, San Joaquin, ",
        "hasStatewideService": false,
        "specificCommunities": [4],
        "areasOfService": [1,2,3,4,5,8,9,10,11,12,13],
        "streetAddress": "1887 Monterey Road 2nd Floor",
        "city": "San Jose",
        "county": "Santa Clara",
        "zipCode": 95112,
        "fullAddress": "1887 Monterey Road 2nd Floor, San Jose, CA 95112",
        "latitude": "37.3081846",
        "longitude": "-121.8695176",
        "website": "https://www.svsbdc.org",
        "phoneNumber": "(408) 385-9800",
        "socialMedia": "Facebook: https://www.facebook.com/ACCESSsbdc;  Instagram: https://www.instagram.com/accesssbdc/"
    },
    {
        "id": 3,
        "name": "Agriculture Land-Based Training Association",
        "languages": [ "English","Spanish" ],
        "geographicAreas": "Monterey, Santa Cruz, San Benito, ",
        "hasStatewideService": false,
        "specificCommunities": [4],
        "areasOfService": [1,2,9],
        "streetAddress": "1700 Old Stage Road",
        "city": "Salinas",
        "county": "Monterey",
        "zipCode": 93908,
        "fullAddress": "1700 Old Stage Rd. Salinas, CA, 93908",
        "latitude": "36.60947",
        "longitude": "-121.53437",
        "email": "info@albafarmers.org",
        "website": "https://www.albafarmers.org",
        "phoneNumber": "(831) 758-1469",
        "socialMedia": "FB, Instagram"
    },
    {
        "id": 4,
        "name": "Alliance SBDC",
        "languages": [ "English","Spanish","Mandarin","Catonese","Vietnamese","Tagalog","Korean","Japanese" ],
        "geographicAreas": "San Diego",
        "hasStatewideService": false,
		"specificCommunities": [],
        "areasOfService": [1,2,3,4,5,12,13],
        "streetAddress": "7675 Dagget St;Ste 340",
        "city": "San Diego",
        "county": "San Diego",
        "zipCode": 92111,
        "fullAddress": "7675 Dagget St, Ste 340 San Diego, CA 92111",
        "latitude": "32.8231954",
        "longitude": "-117.158506",
        "email": "sbdc@abasd.org",
        "website": "https://www.sdivsbdc.org",
        "phoneNumber": 8582772822,
        "socialMedia": "https://www.facebook.com/ABASD"
    },
    {
        "id": 5,
        "name": "American Indian Chamber Education Fund PTAC",
        "languages": [ "English" ],
        "geographicAreas": "Alameda, Alpine, Amador, Butte, Calaveras, Colusa, Contra Costa, Del Norte, El Dorado, Fresno, Glenn, Humboldt, Imperial, Inyo, Kern, Kings, Klamath, Lake, Lassen, Los Angeles, Madera, Marin, Mariposa, Mendocino, Merced, Modoc, Mono, Monterey, Napa, Nevada, Orange, Placer, Plumas, Riverside, Sacramento, San Benito, San Bernardino, San Diego, San Francisco, San Joaquin, San Luis Obispo, San Mateo, Santa Barbara, Santa Clara, Santa Cruz, Shasta, Sierra, Siskiyou, Solano, Sonoma, Stanislaus, Sutter, Tehama, Trinity, Tulare, Tuolumne, Ventura, Yolo, Yuba",
        "hasStatewideService": true,
        "specificCommunities": [1],
        "areasOfService": [1,2,4,8,6,12],
        "streetAddress": "5912 Bolsa Avenue;#108",
        "city": "Huntington Beach",
        "county": "Orange",
        "zipCode": 92649,
        "fullAddress": "5912 Bolsa Avenue, #108 Huntington Beach, CA 92649",
        "latitude": "33.7439556",
        "longitude": "-118.0256467",
        "email": "venessa.gleich@aicccal.org",
        "website": "http://aicef-ptac.org/",
        "phoneNumber": 2134482333,
        "socialMedia": "http://aicef-ptac.org/"
    },
    {
        "id": 6,
        "name": "AnewAmerica WBC – Oakland",
        "languages": [ "English","Japanese","Khmer","Korean","Tagalog","Thai","Mandarin","Cantonese","Toisanese","Spanish" ],
        "geographicAreas": "Alameda",
        "hasStatewideService": false,
        "specificCommunities": [2],
        "areasOfService": [1,2,4,5,12,13],
        "streetAddress": "1470 Fruitvale Ave. ",
        "city": "Oakland",
        "county": "Alameda ",
        "zipCode": 94601,
        "fullAddress": "1470 Fruitvale Ave.  Oakland, CA 94601",
        "latitude": "37.7784748",
        "longitude": "-122.2251041",
        "email": "dneel@anewamerica.org",
        "website": "https://www.anewamerica.org",
        "phoneNumber": 5105325240,
        "socialMedia": "@anewamicrobiz; @anewamerica.microbiz"
    },
    {
        "id": 7,
        "name": "AnewAmerica WBC – San Jose",
        "languages": [ "English","Spanish","Mandarin" ],
        "geographicAreas": "Santa Clara",
        "hasStatewideService": false,
        "specificCommunities": [2],
        "areasOfService": [1,2,4,5,12,13],
        "streetAddress": "210 N. 4th ST - Ste. #205",
        "city": "San Jose ",
        "county": "Santa Clara ",
        "zipCode": 95112,
        "fullAddress": "210 N. 4th ST - Ste. #205 San Jose , CA 95112",
        "latitude": "37.3413208",
        "longitude": "-121.8897911",
        "email": "alockett@anewamerica.org",
        "website": "https://www.anewamerica.org",
        "phoneNumber": 4083262669,
        "socialMedia": "@anewamicrobiz; @anewamerica.microbiz"
    },
    {
        "id": 8,
        "name": "Butte College SBDC",
        "languages": [ "English","Spanish","Vietnamese","Korean","Japanese","Cantonese","French","German","Farsi","Tagalog","Arabic","Hmong","Russian","Portuguese","American Sign Language" ],
        "geographicAreas": "Colusa, Butte, Glenn, Tehama, ",
        "hasStatewideService": false,
        "specificCommunities": [4,1,3,2,5],
        "areasOfService": [1,2,3,4,5,8,9,10,11,12,13],
        "streetAddress": "2480 Notre Dame Boulevard",
        "city": "Chico",
        "county": "Butte",
        "zipCode": 95928,
        "fullAddress": "2480 Notre Dame Blvd., Chico, CA 95928",
        "latitude": "39.7155964",
        "longitude": "-121.7959348",
        "website": "https://www.buttecollegesbdc.com",
        "phoneNumber": "(530) 895-9017",
        "socialMedia": "Facebook: https://www.facebook.com/bcsbdc; Twitter: https://twitter.com/BCSBDC; LinkedIn: https://www.linkedin.com/company/bcsbdc/"
    },
    {
        "id": 9,
        "name": "Cal Coastal SBDC",
        "languages": [ "Spanish","English","Japanese" ],
        "geographicAreas": "Monterey, San Benito",
        "hasStatewideService": false,
		"specificCommunities": [],
        "areasOfService": [1,2,3,4,8,5,6,7,9,10,11,12,13],
        "streetAddress": "106 Lincoln Avenue",
        "city": "Salinas",
        "county": "Monterey",
        "zipCode": 93901,
        "fullAddress": "106 Lincoln Avenue Salinas, CA 93901",
        "latitude": "36.6763201",
        "longitude": "-121.6578315",
        "email": "sbdc@calcoastal.org",
        "website": "https://CalCoastalSBDC.com",
        "phoneNumber": 8316762017,
        "socialMedia": "Twitter: @CalCoastalSBDC; Facebook: @CALCOASTAL.SBDC; Instagram: calcoastal.sbdc"
    },
    {
        "id": 10,
        "name": "Cal Poly CIE SBDC",
        "languages": [ "English","Spanish" ],
        "geographicAreas": "San Luis Obispo",
        "hasStatewideService": false,
		"specificCommunities": [],
        "areasOfService": [1,2,3,4,8,5,6,7,9,10,11,12,13],
        "streetAddress": "872 Higuera St.",
        "city": "San Luis Obispo ",
        "county": "San Luis Obispo ",
        "zipCode": 93401,
        "fullAddress": "872 Higuera St. San Luis Obispo , CA 93401",
        "latitude": "35.2806081",
        "longitude": "-120.6625449",
        "email": "Slosbdc@gmail.com ",
        "website": "sbdc.calpoly.edu ",
        "phoneNumber": 8057565171,
        "socialMedia": "Facebook: https://www.facebook.com/CalPolySBDC/  Instagram: https://www.instagram.com/calpolysbdc/  LinkedIn: https://www.linkedin.com/company/calpolyciesbdc"
    },
    {
        "id": 11,
        "name": "CalHispanic SBDC",
        "languages": [ "English","Spanish" ],
        "geographicAreas": "Sacramento",
        "hasStatewideService": false,
        "specificCommunities": [4],
        "areasOfService": [1,2],
        "streetAddress": "1510 J Street, Suite 210",
        "city": "Sacramento",
        "county": "Sacramento",
        "zipCode": 95814,
        "fullAddress": "1510 J Street, Suite 210, Sacramento, CA 95814",
        "latitude": "38.578005",
        "longitude": "-121.488312",
        "website": "https://www.cahispanicsbdc.org/",
        "phoneNumber": "(916) 573-4808"
    },
    {
        "id": 12,
        "name": "California Asian Pacific Chamber of Commerce",
        "languages": [ "English" ],
        "geographicAreas": "Sacramento",
        "hasStatewideService": false,
        "specificCommunities": [4],
        "areasOfService": [1,2,3,4,8,5,6,10,12],
        "streetAddress": "2331 Alhambra Blvd., Suite 100",
        "city": "Sacramento",
        "county": "Sacramento",
        "zipCode": 95817,
        "fullAddress": "2331 Alhambra Blvd., Suite 100, Sacramento, CA 95817",
        "latitude": "38.5572254",
        "longitude": "-121.4738348",
        "email": "sacramentombda@calasiancc.org",
        "website": "https://www.sacramentombda.com",
        "phoneNumber": 9164467883
    },
    {
        "id": 13,
        "name": "California Capital Women's Business Center",
        "languages": [ "English" ],
        "geographicAreas": "El Dorado, Nevada, Placer, Sacramento, San Joaquin, Sutter, Yolo, Yuba",
        "hasStatewideService": false,
        "specificCommunities": [2],
        "areasOfService": [1,2,3,8,5,6,7,9,11,12,13],
        "streetAddress": "1792 Tribute Road Suite 270",
        "city": "Sacramento",
        "county": "Sacramento",
        "zipCode": 95815,
        "fullAddress": "1792 Tribute Road Suite 270 Sacramento, CA 95815",
        "latitude": "38.5982141",
        "longitude": "-121.4456882",
        "email": "womensbusinesscenter@cacapital.org",
        "website": "https://www.cacapital.org",
        "phoneNumber": 9164421729,
        "socialMedia": "Facebook: @Cacapitalfdc"
    },
    {
        "id": 14,
        "name": "California FarmLink",
        "languages": [ "English","Spanish" ],
        "geographicAreas": "Butte, Contra Costa, El Dorado, Fresno, Kern, Marin, Mendocino, Merced, Monterey, Napa, Nevada, Sacramento, San Benito, San Diego, San Joaquin, San Luis Obispo, San Mateo, Santa Clara, Santa Cruz, Solano, Sonoma, Stanislaus, Tulare, Yolo",
        "hasStatewideService": false,
		"specificCommunities": [],
        "areasOfService": [1,2,9],
        "streetAddress": "335 Spreckels Dr",
        "city": "Aptos",
        "county": "Santa Cruz",
        "zipCode": 95003,
        "fullAddress": "335 Spreckels Dr, Aptos, CA 95003",
        "latitude": "36.9758713",
        "longitude": "-121.9065235",
        "website": "https://www.californiafarmlink.org/",
        "phoneNumber": "(831) 425-0303",
        "socialMedia": "Facebook: http://www.facebook.com/pages/California-FarmLink/127920297237919; Twitter: https://twitter.com/CA_FarmLink Instagram: https://www.instagram.com/californiafarmlink/"
    },
    {
        "id": 15,
        "name": "California Manufacturing Technology Center (CMTC)",
        "languages": [ "English","Spanish" ],
        "geographicAreas": "Alameda, Alpine, Amador, Butte, Calaveras, Colusa, Contra Costa, Del Norte, El Dorado, Fresno, Glenn, Humboldt, Imperial, Inyo, Kern, Kings, Klamath, Lake, Lassen, Los Angeles, Madera, Marin, Mariposa, Mendocino, Merced, Modoc, Mono, Monterey, Napa, Nevada, Orange, Placer, Plumas, Riverside, Sacramento, San Benito, San Bernardino, San Diego, San Francisco, San Joaquin, San Luis Obispo, San Mateo, Santa Barbara, Santa Clara, Santa Cruz, Shasta, Sierra, Siskiyou, Solano, Sonoma, Stanislaus, Sutter, Tehama, Trinity, Tulare, Tuolumne, Ventura, Yolo, Yuba",
        "hasStatewideService": true,
        "specificCommunities": [3],
        "areasOfService": [1,2,8,5,7,10,11,12,13],
        "streetAddress": "690 Knox Street;Suite 200;Torrance;CA",
        "city": "Torrance",
        "county": "Los Angeles",
        "zipCode": 90502,
        "fullAddress": "690 Knox Street, Suite 200, Torrance, CA Torrance, CA 90502",
        "latitude": "33.8537327",
        "longitude": "-118.2876517",
        "email": "samia@cmtc.com",
        "website": "https://www.cmtc.com",
        "phoneNumber": 3102633060,
        "socialMedia": "Facebook: https://www.facebook.com/CMTCSolutions  Twitter: https://twitter.com/CMTCSolutions  Instagram: https://www.instagram.com/cmtc_california"
    },
    {
        "id": 16,
        "name": "California Manufacturing Technology Consulting",
        "languages": [ "English","Spanish" ],
        "geographicAreas": "Yuba, Yolo, Ventura, Tuolumne, Tulare, Trinity, Tehama, Sutter, Stanislaus, Sonoma, Solano, Siskiyou, Sierra, Shasta, Santa Cruz, Santa Clara, Santa Barbara, San Mateo, San Luis Obispo, San Joaquin, San Francisco, San Diego, San Bernardino, San Benito, Sacramento, Riverside, Plumas, Placer, Orange, Nevada, Napa, Monterey, Mono, Modoc, Merced, Mendocino, Mariposa, Marin, Madera, Los Angeles, Lassen, Lake, Kings, Kern, Inyo, Imperial, Humboldt, Glenn, Fresno, El Dorado, Del Norte, Contra Costa, Colusa, Calaveras, Butte, Amador, Alpine, Alameda, ",
        "hasStatewideService": false,
		"specificCommunities": [],
        "areasOfService": [1,2],
        "streetAddress": "690 Knox Street Suite  200",
        "city": "Torrance",
        "county": "Los Angeles",
        "zipCode": 90502,
        "fullAddress": "690 Knox Street Suite 200, Torrance, CA 90502",
        "latitude": "33.8537061",
        "longitude": "-118.2898093",
        "website": "https://www.cmtc.com",
        "phoneNumber": "(310) 263-3000"
    },
    {
        "id": 17,
        "name": "Capital Region SBDC",
        "languages": [ "English","Spanish","Vietnamese","Korean","Japanese","Cantonese","French","German","Farsi","Tagalog","Arabic","Hmong","Russian","Portuguese","American Sign Language" ],
        "geographicAreas": "Sacramento, Yolo, Yuba, Sutter, Colusa, El Dorado, and Placer",
        "hasStatewideService": false,
		"specificCommunities": [],
        "areasOfService": [1,2,3,4,8,5,6,7,9,10,12,13],
        "streetAddress": "1 Capital Mall ",
        "city": "Sacramento ",
        "county": "Sacramento ",
        "zipCode": 95814,
        "fullAddress": "1 Capital Mall  Sacramento , CA 95814",
        "latitude": "38.5802572",
        "longitude": "-121.5059973",
        "email": "sbdc@metrochamber.org",
        "website": "https://www.capitalregionsbdc.com ",
        "phoneNumber": 9163194268,
        "socialMedia": "FB/LinkedIn: Capital Region SBDC ; Twitter: @SacramentoSBDC"
    },
    {
        "id": 18,
        "name": "Caravanserai Project",
        "languages": [ "English","Spanish" ],
        "geographicAreas": "Imperial County, Los Angeles County, Riverside County, San Bernardino County, San Diego County, Yuba County, Yolo County, Ventura County, Tuolumne County, Tulare County, Trinity County, Tehama County, Sutter County, Stanislaus County, Sonoma County, Solano County, Siskiyou County, Sierra County, Shasta County, Santa Cruz County, Santa Clara County, Santa Barbara County, San Mateo County, San Luis Obispo County, San Joaquin County, San Francisco County, San Benito County, Sacramento County, Plumas County, Placer County, Orange County, Nevada County, Madera County, Marin County, Mariposa County, Mendocino County, Merced County, Modoc County, Mono County, Monterey County, Napa County, Lassen County, Lake County, Kings County, Kern County, Inyo County, Humboldt County, Glenn County, Fresno County, El Dorado County, Del Norte County, Contra Costa County, Colusa County, Alameda County, Alpine County, Amador County, Butte County, Calaveras County, ",
        "hasStatewideService": true,
        "specificCommunities": [4,1,2,5],
        "areasOfService": [1,2,8,9,3,12,13],
        "streetAddress": "750 E Tahquitz Canyon Way Unit 1",
        "city": "Palm Springs",
        "county": "Riverside",
        "zipCode": 92263,
        "fullAddress": "750 E Tahquitz Canyon Way Unit 1, Palm Springs, CA 92263",
        "latitude": "33.8235053",
        "longitude": "-116.5420723",
        "website": "https://caravanseraiproject.org"
    },
    {
        "id": 19,
        "name": "Central CA SBDC - Lead Center",
        "languages": [ "English","Spanish","Hmong" ],
        "geographicAreas": "Stanislaus, Tuolomne, Mariposa, Merced, Madera, Fresno, Tulare, Kings, Kern, Inyo, Mono, San Luis Obispo, San Benito, Monterey",
        "hasStatewideService": false,
		"specificCommunities": [],
        "areasOfService": [1,2,3,4,8,5,6,7,9,10,11,12,13],
        "streetAddress": "1735 M St",
        "city": "Merced",
        "county": "Merced",
        "zipCode": 95340,
        "fullAddress": "1735 M St Merced, CA 95340",
        "latitude": "37.3028197",
        "longitude": "-120.4846359",
        "email": "casbdc@ucmerced.edu ",
        "website": "https://centralcasbdc.com/",
        "phoneNumber": 8888423415,
        "socialMedia": "https://www.facebook.com/CenCASBDC/"
    },
    {
        "id": 20,
        "name": "Chico State Enterprises EDA University Center",
        "languages": [ "English","Spanish" ],
        "geographicAreas": "Butte, Colusa, Glenn, Lake, Lassen, Modoc, Plumas, Shasta, Sierra, Siskiyou, Tehama, Trinity, Yuba",
        "hasStatewideService": false,
        "specificCommunities": [4,3,2],
        "areasOfService": [1,2,5,7,8,11,12],
        "streetAddress": "35 Main Street, Suite 132",
        "city": "Chico",
        "county": "Butte",
        "zipCode": 95929,
        "fullAddress": "35 Main Street, Suite 132, Chico, CA 95929",
        "latitude": "39.7314673",
        "longitude": "-121.8433765",
        "website": "https://www.nspdc.csuchico.edu/",
        "phoneNumber": "(530) 898-4372"
    },
    {
        "id": 21,
        "name": "Fresno State EDA University Center ",
        "languages": [ "English","Spanish","Hmong","Punjabi" ],
        "geographicAreas": "Fresno, Kern, Kings, Madera, Merced, San Joaquin, Stanislaus, Tulare, Tuolumne",
        "hasStatewideService": false,
        "specificCommunities": [4,2,5,1,3],
        "areasOfService": [1,2,5,6,8,9,10,11,12,13],
        "streetAddress": "550 E Shaw Avenue, Suite 230",
        "city": "Fresno",
        "county": "Fresno",
        "zipCode": 93727,
        "fullAddress": "550 E Shaw Avenue, Suite 230, Fresno, CA 93727",
        "latitude": "36.809296",
        "longitude": "-119.7805577",
        "website": "https://www.fresnostate.edu/academics/oced/university-center/",
        "phoneNumber": "(559) 278-0542"
    },
    {
        "id": 22,
        "name": "Coachella Valley SBDC",
        "languages": [ "English","Spanish","Portuguese" ],
        "geographicAreas": "Riverside,  San Bernardino",
        "hasStatewideService": false,
		"specificCommunities": [],
        "areasOfService": [1,2,3,7,8,5,12,13],
        "streetAddress": "44-199 Monroe Street",
        "city": "Coachella",
        "county": "Riverside",
        "zipCode": 92201,
        "fullAddress": "44-199 Monroe Street, Coachella, CA, 92201",
        "latitude": "33.73323",
        "longitude": "-116.23373",
        "email": "cvsmallbusiness@ociesbdc.com",
        "website": "https://ociesmallbusiness.org",
        "phoneNumber": 7608484096,
        "socialMedia": "@ociesbdc"
    },
    {
        "id": 23,
        "name": "Coachella Valley WBC",
        "languages": [ "English","Spanish" ],
        "geographicAreas": "Riverside",
        "hasStatewideService": false,
        "specificCommunities": [2],
        "areasOfService": [1,2,4,5,7,8,10,12,13],
        "streetAddress": "77807 Flora Road, Suite A",
        "city": "Palm Desert",
        "county": "Riverside",
        "zipCode": 92211,
        "fullAddress": "77807 Flora Road, Suite A Palm Desert, CA 92211",
        "latitude": "33.7680359",
        "longitude": "-116.3062148",
        "email": "kscanlan@cvwbc.org",
        "website": "https://www.cvwbc.org",
        "phoneNumber": 7603459200,
        "socialMedia": "www.facebook.com/CVWBC; https://twitter.com/CVWBC; https://www.instagram.com/cvwbc/"
    },
    {
        "id": 24,
        "name": "College of The Canyons SBDC",
        "languages": [ "English","American Sign Language","Spanish","German","Greek","Armenian","Farsi","Hindi","Punjabi","Pahari","Gujarati","Marathi" ],
        "geographicAreas": "Los Angeles",
        "hasStatewideService": false,
        "specificCommunities": [4,1,3,2,5],
        "areasOfService": [1,2,3,4,5,6,7,8,9,10,11,12,13],
        "streetAddress": "26455 Rockwell Canyon Road",
        "city": "Santa Clarita",
        "county": "Los Angeles",
        "zipCode": 91355,
        "fullAddress": "26455 Rockwell Canyon Road, University Center Building - Room 272 Santa Clarita, CA 91355",
        "latitude": "34.4043812",
        "longitude": "-118.5705894",
        "website": "https://cocsbdc.org",
        "phoneNumber": "(661) 362-5900",
        "socialMedia": "@sbdcnola"
    },
    {
        "id": 25,
        "name": "Connect SBDC",
        "languages": [ "English","Spanish" ],
        "geographicAreas": "San Diego",
        "hasStatewideService": false,
		"specificCommunities": [],
        "areasOfService": [1,2,3,9],
        "streetAddress": "4110 Campus Point Ct",
        "city": "San Diego",
        "county": "San Diego",
        "zipCode": 92121,
        "fullAddress": "4110 Campus Point Ct San Diego, CA 92121",
        "latitude": "32.8919727",
        "longitude": "-117.2259976",
        "email": "springboard@connect.org",
        "website": "https://www.sdivsbdc.org",
        "phoneNumber": 8589641300,
        "socialMedia": "https://www.facebook.com/ConnectInSD"
    },
    {
        "id": 26,
        "name": "Contra Costa SBDC",
        "languages": [ "English","Spanish","Vietnamese","Korean","Japanese","Cantonese","French","German","Farsi","Tagalog","Arabic","Hmong","Russian","Portuguese","American Sign Language" ],
        "geographicAreas": "Contra Costa",
        "hasStatewideService": false,
		"specificCommunities": [],
        "areasOfService": [1,2,3,4,7,8,5,6,9,10,11,12,13],
        "streetAddress": "4071 Port Chicago Hwy #250",
        "city": "Concord",
        "county": "Contra Costa",
        "zipCode": 94520,
        "fullAddress": "4071 Port Chicago Hwy #250 Concord, CA 94520",
        "latitude": "38.0147002",
        "longitude": "-122.0255857",
        "email": "admin@contracostasbdc.org",
        "website": "https://contracostasbdc.org",
        "phoneNumber": 9252225228,
        "socialMedia": "californiasbdc"
    },
    {
        "id": 27,
        "name": "CSU Bakersfield SBDC",
        "languages": [ "English","Spanish","Armenian","Hmong","Punjabi" ],
        "geographicAreas": "Kern,  Inyo,  Mono",
        "hasStatewideService": false,
		"specificCommunities": [],
        "areasOfService": [1,2,3,4,7,8,5,6,9,10,11,12,13],
        "streetAddress": "1631 17th Street, Suite 200",
        "city": "Bakersfied",
        "county": "Kern",
        "zipCode": 93301,
        "fullAddress": "1631 17th Street, Suite 200 Bakersfied, CA 93301",
        "latitude": "35.3741822",
        "longitude": "-119.0209806",
        "email": "sbdc@csub.edu",
        "website": "https://csubsbdc.com",
        "phoneNumber": 6616542856,
        "socialMedia": "https://www.facebook.com/CSUBakersfieldSBDC/"
    },
    {
        "id": 28,
        "name": "East Bay SBDC",
        "languages": [ "English" ],
        "geographicAreas": "Alameda",
        "hasStatewideService": false,
		"specificCommunities": [],
        "areasOfService": [1,2],
        "streetAddress": "25800 Carlos Bee Boulevard, VBT 346 ",
        "city": "Hayward",
        "county": "Alameda ",
        "zipCode": 94542,
        "fullAddress": "25800 Carlos Bee Boulevard, VBT 346, Hayward, CA 94542",
        "latitude": "37.6572838",
        "longitude": "-122.0630853",
        "website": "https://www.eastbaysbdc.org/",
        "phoneNumber": "(510) 516-4118"
    },
    {
        "id": 29,
        "name": "East County SBDC",
        "languages": [ "English","Spanish" ],
        "geographicAreas": "San Diego",
        "hasStatewideService": false,
		"specificCommunities": [],
        "areasOfService": [1,2,3,4,7,8,5,6,11,12,13],
        "streetAddress": "127 East Lexington",
        "city": "El Cajon",
        "county": "San Diego",
        "zipCode": 92020,
        "fullAddress": "127 East Lexington El Cajon, CA 92020",
        "latitude": "32.7924769",
        "longitude": "-116.9616962",
        "email": "danielle.sparks@eastcountyedc.org",
        "website": "https://www.sdivsbdc.org",
        "phoneNumber": 6192583670,
        "socialMedia": "https://www.facebook.com/EastCountyEDC"
    },
    {
        "id": 30,
        "name": "Economic Development Collaborative Ventura County SBDC",
        "languages": [ "English","Spanish","Mandarin","Russian","Korean" ],
        "geographicAreas": "Los Angeles, Santa Barbara, Ventura, ",
        "hasStatewideService": false,
        "specificCommunities": [4,3,1,5,2],
        "areasOfService": [2,1,3,4,5,9,8,7,6,12,10,11,13],
        "streetAddress": "4001 Mission Oaks Blvd. Suite A-1",
        "city": "Camarillo",
        "county": "Ventura",
        "zipCode": 93010,
        "fullAddress": "4001 Mission Oaks Blvd  Suite A-1 Camarillo, CA 93012",
        "latitude": "34.2168562",
        "longitude": "-119.0166234",
        "email": "info@edcsbdc.org",
        "website": "edcsbdc.org",
        "phoneNumber": "(805) 384-1800"
    },
    {
        "id": 31,
        "name": "El Camino College SBDC",
        "languages": [ "English","Spanish","French","Croatian" ],
        "geographicAreas": "Los Angeles, ",
        "hasStatewideService": false,
        "specificCommunities": [4,1,3,2,5],
        "areasOfService": [1,2,3,4,5,7,6,8,9,10,12,11,13],
        "streetAddress": "13430 Hawthorne Blvd.",
        "city": "Hawthorne",
        "county": "Los Angeles",
        "zipCode": 90250,
        "fullAddress": "13430 Hawthorne Blvd. Hawthorne, CA 902050",
        "latitude": "33.9102551",
        "longitude": "-118.3522511",
        "website": "https://southbaysbdc.org",
        "phoneNumber": "(310) 225-8277",
        "socialMedia": "facebook.com/southbaysbdc"
    },
    {
        "id": 32,
        "name": "El Pajaro Community Development Corporation",
        "languages": [ "English","Spanish" ],
        "geographicAreas": "Monterey,  San Benito,  Santa Cruz",
        "hasStatewideService": false,
		"specificCommunities": [],
        "areasOfService": [1,2,4,5,9,10,11,12,13],
        "streetAddress": "23 East Beach Street Suite 209",
        "city": "Watsonville",
        "county": "Santa Cruz",
        "zipCode": 95073,
        "fullAddress": "23 East Beach Street Suite 209 Watsonville, CA 95073",
        "latitude": "36.9108058",
        "longitude": "-121.7563887",
        "email": "info@elpajarocdc.org",
        "website": "https://www.elpajarocdc.org",
        "phoneNumber": 8317221224,
        "socialMedia": "@elpajarocdc (Facebook, Twitter)"
    },
    {
        "id": 33,
        "name": "Export SBDC at San Diego WTC",
        "languages": [ "English","Spanish" ],
        "geographicAreas": "San Diego",
        "hasStatewideService": false,
		"specificCommunities": [],
        "areasOfService": [1,2,10],
        "streetAddress": "530 B St, 7th Floor",
        "city": "San Diego",
        "county": "San Diego",
        "zipCode": 92101,
        "fullAddress": "530 B St, 7th Floor San Diego, CA 92101",
        "latitude": "32.7180744",
        "longitude": "-117.1596088",
        "email": "lc@sandiegobusiness.org",
        "website": "https://www.sdivsbdc.org",
        "phoneNumber": 6192348484,
        "socialMedia": "https://twitter.com/WTCSanDiego"
    },
    {
        "id": 34,
        "name": "Fresno Area Hispanic Foundation",
        "languages": [ "English","Spanish","Hmong","Punjabi" ],
        "geographicAreas": "Fresno,  Kern,  Kings,  Madera,  Merced,  San Joaquin,  Stanislaus,  Tulare",
        "hasStatewideService": false,
		"specificCommunities": [],
        "areasOfService": [1,2,3,4,8,5,10,12],
        "streetAddress": "1444 Fulton St",
        "city": "Fresno",
        "county": "Fresno County",
        "zipCode": 93721,
        "fullAddress": "1444 Fulton St Fresno, CA 93721",
        "latitude": "36.7388788",
        "longitude": "-119.7952114",
        "email": "Incubator@fresnodbh.org",
        "website": "https://www.fresnoahf.org",
        "phoneNumber": 5592228705,
        "socialMedia": "Facebook: @fresnoahf, Twitter: @fresnoahf,  Instagram: @fresnoahf"
    },
    {
        "id": 35,
        "name": "Fresno Metro Black Chamber Foundation ",
        "languages": [ "English" ],
        "geographicAreas": "Fresno, Kern, Kings, San Joaquin, Madera, ",
        "hasStatewideService": false,
        "specificCommunities": [4,2],
        "areasOfService": [1,2,5,12],
        "streetAddress": "1600 Fulton Street",
        "city": "Fresno",
        "county": "Fresno",
        "zipCode": 93721,
        "fullAddress": "1600 Fulton Street, Fresno, CA 93721",
        "latitude": "36.7402982",
        "longitude": "-119.7986717",
        "website": "https://fmbcc.com/",
        "phoneNumber": "(559) 441-7929"
    },
    {
        "id": 36,
        "name": "Imperial Valley SBDC",
        "languages": [ "English","Spanish" ],
        "geographicAreas": "Imperial",
        "hasStatewideService": false,
		"specificCommunities": [],
        "areasOfService": [1,2,3,4,7,8,5,6,10,11,12,13],
        "streetAddress": "2415 Imperial Business Parkway Ste A",
        "city": "Imperial",
        "county": "Imperial",
        "zipCode": 92251,
        "fullAddress": "2415 Imperial Business Parkway Ste A Imperial, CA 92251",
        "latitude": "32.826666",
        "longitude": "-115.5765041",
        "email": "meredith@imperialalliance.org",
        "website": "https://www.sdivsbdc.org",
        "phoneNumber": 7603129800,
        "socialMedia": "https://www.facebook.com/IVSBDC"
    },
    {
        "id": 37,
        "name": "Indian Dispute Resolution Servivces;Inc.",
        "languages": [ "English" ],
        "geographicAreas": "Alameda, Alpine, Amador, Butte, Calaveras, Colusa, Contra Costa, Del Norte, El Dorado, Fresno, Glenn, Humboldt, Inyo, Imperial, Kern, Kings, Lake, Lassen, Los Angeles, Madera, Marin, Mariposa, Mendocino, Merced, Mono, Modoc, Monterey, Napa, Nevada, Orange, Placer, Plumas, Riverside, Sacramento, San Benito, San Bernardino, San Diego, San Francisco, San Luis Obispo, San Joaquin, San Mateo, Santa Barbara, Santa Clara, Santa Cruz, Shasta, Sierra, Siskiyou, Solano, Sonoma, Stanislaus, Sutter, Tehama, Trinity, Tulare, Tuolumne, Ventura, Yuba, Yolo, ",
        "hasStatewideService": false,
        "specificCommunities": [4,1],
        "areasOfService": [1,2,8,6,5],
        "streetAddress": "P.O. Box 877",
        "city": "Plymouth",
        "county": "Amador",
        "zipCode": 95669,
        "fullAddress": "P.O. Box 877 Plymouth, CA 95669",
        "latitude": "38.4816371",
        "longitude": "-120.846785",
        "email": "info@idrsinc.org",
        "website": "https://www.nativebiz.org",
        "phoneNumber": "(916) 482-5800",
        "socialMedia": "https://www.facebook.com/idrsacornproject, https://www.instagram.com/idrs_acorn_project/"
    },
    {
        "id": 38,
        "name": "Inland Empire Center for Entrepreneurship",
        "languages": [ "English" ],
        "geographicAreas": "San Bernardino, Butte, El Dorado, Glenn, Los Angeles, Placer, Riverside, Sacramento, Shasta, Siskiyou, Sutter, Tehama, Yuba, ",
        "hasStatewideService": false,
        "specificCommunities": [3,1,4,2,5],
        "areasOfService": [1,2,8,10,12],
        "streetAddress": "5500 University Parkway JBH284",
        "city": "San Bernardino",
        "county": "San Bernardino",
        "zipCode": 92407,
        "fullAddress": "5500 University Parkway JBH284, San Bernardino, CA 92407",
        "latitude": "34.1837196",
        "longitude": "-117.3277777",
        "website": "https://www.iece.csusb.edu/",
        "phoneNumber": "(714) 951-5446"
    },
    {
        "id": 39,
        "name": "Inland Empire SBDC",
        "languages": [ "English","Cantonese","Mandarin","Spanish","Ukrainian" ],
        "geographicAreas": "Riverside,  San Bernardino",
        "hasStatewideService": false,
		"specificCommunities": [],
        "areasOfService": [1,2,3,4,8,5,6,12,13],
        "streetAddress": "3780 Market Street",
        "city": "Riverside",
        "county": "Riverside",
        "zipCode": 92501,
        "fullAddress": "3780 Market Street, Riverside, CA 92591",
        "latitude": "33.9827248",
        "longitude": "-117.3754429",
        "email": "pnolta@iesmallbusiness.com",
        "website": "https://ociemsallbusiness.org",
        "phoneNumber": 9517812345,
        "socialMedia": "@ociesbdc"
    },
    {
        "id": 40,
        "name": "Inland Empire WBC",
        "languages": [ "English","Spanish" ],
        "geographicAreas": "Riverside,  San Bernardino",
        "hasStatewideService": false,
        "specificCommunities": [2],
        "areasOfService": [1,2,8,5,12,13],
        "streetAddress": "1003 E. Cooley Drive, Suite 109",
        "city": "Colton",
        "county": "San Bernardino",
        "zipCode": 92324,
        "fullAddress": "1003 E. Cooley Drive, Suite 109 Colton, CA 92324",
        "latitude": "34.0549285",
        "longitude": "-117.3106863",
        "email": "mskiljan@iewbc.org",
        "website": "http://www.iewbc.org",
        "phoneNumber": 9098901242,
        "socialMedia": "Instagram is @iewbc  Twitter is @IEWBC1 Facebook @iewbc"
    },
    {
        "id": 41,
        "name": "International Rescue Committee SBDC",
        "languages": [ "English","Spanish","Arabic","Farsi","Somali","Swahili","Turkish","Russian","French","Portuguese" ],
        "geographicAreas": "San Diego",
        "hasStatewideService": false,
		"specificCommunities": [],
        "areasOfService": [1,2,3,4,13],
        "streetAddress": "5348 University Ave #205",
        "city": "San Diego",
        "county": "San Diego",
        "zipCode": 92105,
        "fullAddress": "5348 University Ave #205 San Diego, CA 92105",
        "latitude": "32.7494586",
        "longitude": "-117.0811682",
        "email": "adriana.taboada@rescue.org",
        "website": "https://www.sdivsbdc.org",
        "phoneNumber": 6194406208,
        "socialMedia": "https://www.facebook.com/IRCsandiego"
    },
    {
        "id": 42,
        "name": "LA County PTAC",
        "languages": [ "English","Spanish","Korean" ],
        "geographicAreas": "Los Angeles",
        "hasStatewideService": false,
		"specificCommunities": [],
        "areasOfService": [1,2,4,6],
        "streetAddress": "133 North Sunol Drive ",
        "city": "East Los Angeles",
        "county": "Los Angeles",
        "zipCode": 90063,
        "fullAddress": "133 North Sunol Drive  East Los Angeles, CA 90063",
        "latitude": "34.0371502",
        "longitude": "-118.1792959",
        "email": "ptac@dcba.lacounty.gov",
        "website": "https://dcba.lacounty.gov/ptac/",
        "phoneNumber": 3238813964,
        "socialMedia": "@LACoSmallBiz"
    },
    {
        "id": 43,
        "name": "Long Beach SBDC",
        "languages": [ "English,Spanish" ],
        "geographicAreas": "Los Angeles, ",
        "hasStatewideService": false,
        "specificCommunities": [4,1,3,2,5],
        "areasOfService": [1,2,3,4,5,6,7,8,9,10,11,12,13],
        "streetAddress": "4900 E. Conant St. Bldg. O2",
        "city": "Long Beach",
        "county": "Los Angeles",
        "zipCode": 90808,
        "fullAddress": "4900 East Conant Street, Building O-2 Long Beach, CA 90808",
        "latitude": "33.8245336",
        "longitude": "-118.1354463",
        "website": "https://longbeachsbdc.org",
        "phoneNumber": "(562) 938-5100",
        "socialMedia": "@LongBeachSBDC"
    },
    {
        "id": 44,
        "name": "Los Angeles Area Chamber of Commerce ",
        "languages": [ "English" ],
        "geographicAreas": "Los Angeles, Orange, Riverside, San Bernardino, Ventura, ",
        "hasStatewideService": false,
        "specificCommunities": [4,1,3,2,5],
        "areasOfService": [1,2,3,4,5,6,7,8,9,10,11,12,13],
        "streetAddress": "350 S. Bixel Street",
        "city": "Los Angeles",
        "county": "Los Angeles",
        "zipCode": 90017,
        "fullAddress": "350 S. Bixel Street, Los Angeles, CA 90017",
        "latitude": "34.0569928",
        "longitude": "-118.2619031",
        "website": "https://lachamber.com/",
        "phoneNumber": "(213) 580-7500",
        "socialMedia": "Facebook: http://www.facebook.com/LAAreaChamber; Twitter: http://twitter.com/LAAreaChamber; Instagram: https://www.instagram.com/laareachamber/; LinkedIn: http://www.linkedin.com/company/los-angeles-area-chamber-of-commerce"
    },
    {
        "id": 45,
        "name": "Los Angeles SBDC Lead Center",
        "languages": [ "English","Spanish","Romanian","Tagolog","Polish" ],
        "geographicAreas": "Los Angeles, Santa Barbara, Ventura, ",
        "hasStatewideService": false,
        "specificCommunities": [4,1,3,2,5],
        "areasOfService": [2,1,3,4,5,6,7,8,9,10,11,12,13],
        "streetAddress": "4900 E. Conant St. Bldg. O2",
        "city": "Long Beach",
        "county": "Los Angeles",
        "zipCode": 90808,
        "fullAddress": "4900 East Conant Street Long Beach, CA 90808",
        "latitude": "33.8245336",
        "longitude": "-118.1354463",
        "website": "https://SmallBizLA.org",
        "phoneNumber": "(866) 588-SBDC",
        "socialMedia": "Twitter: @SBDCLosAngeles , Facebook: Los Angeles Regional SBDC Network @sbdclosangeles , LinkedIn: Los Angeles Regional SBDC Network"
    },
    {
        "id": 46,
        "name": "LTSC API Small Business Program Women's Business Center",
        "languages": [ "English","Mandarin","Korean" ],
        "geographicAreas": "Los Angeles",
        "hasStatewideService": false,
        "specificCommunities": [2],
        "areasOfService": [1,2,3,4,8,5,6,7,10,11,12,13],
        "streetAddress": "231 E 3rd Street",
        "city": "Los Angeles",
        "county": "Los Angeles",
        "zipCode": 90013,
        "fullAddress": "231 E 3rd Street Los Angeles, CA 90013",
        "latitude": "34.0484039",
        "longitude": "-118.2435712",
        "email": "smallbiz@apisbp.org",
        "website": "https://www.apisbp.org",
        "phoneNumber": 2134731605,
        "socialMedia": "T & FB: APISBP"
    },
    {
        "id": 47,
        "name": "Main Street Launch",
        "languages": [ "English","Spanish" ],
        "geographicAreas": "Stanislaus, Alameda, San Francisco, ",
        "hasStatewideService": false,
        "specificCommunities": [4,2,5],
        "areasOfService": [1,2,3,5,6,8,12],
        "streetAddress": "2101 Webster Street Suite 1200",
        "city": "Oakland",
        "county": "Alameda",
        "zipCode": 94611,
        "fullAddress": "2101 Webster Street, Suite 1200 Oakland, CA 94612",
        "latitude": "37.8102801",
        "longitude": "-122.2660091",
        "email": "Jessika@mainstreetlaunch.org",
        "website": "https://www.mainstreetlaunch.org",
        "phoneNumber": "(510) 763-4297",
        "socialMedia": "#MainStLaunch"
    },
    {
        "id": 48,
        "name": "Marin SBDC",
        "languages": [ "English","Spanish","Vietnamese","Korean","Japanese","Cantonese","French","German","Farsi","Tagalog","Arabic","Hmong","Russian","Portuguese","American Sign Language" ],
        "geographicAreas": "Marin, ",
        "hasStatewideService": false,
        "specificCommunities": [4,1,3,2,5],
        "areasOfService": [1,2,3,4,5,8,9,10,11,12,13],
        "streetAddress": "79 Acacia Avenue 104 BertrHall",
        "city": "San Rafael",
        "county": "Marin",
        "zipCode": 94901,
        "fullAddress": "50 Acacia Ave  San Rafael , CA 94901",
        "latitude": "37.9798523",
        "longitude": "-122.5134504",
        "email": "Matthew@marinsbdc.org",
        "website": "https://www.marinsbdc.org",
        "phoneNumber": "(415) 482-1819",
        "socialMedia": "Marin SBDC or Small Business Development Center"
    },
    {
        "id": 49,
        "name": "MCSC Kern WBC",
        "languages": [ "English","Spanish" ],
        "geographicAreas": "Kern",
        "hasStatewideService": false,
        "specificCommunities": [2],
        "areasOfService": [1,2,3,4,7,8,5,6,11,12,13],
        "streetAddress": "201 New Stine Rd, Suite 300",
        "city": "Bakersfield",
        "county": "Kern",
        "zipCode": 93309,
        "fullAddress": "201 New Stine Rd, Suite 300, Bakersfield, CA 93309",
        "latitude": "35.3529013",
        "longitude": "-119.0643013",
        "website": "https://www.mcscorp.org/kern",
        "phoneNumber": "(661) 567-0410"
    },
    {
        "id": 50,
        "name": "MCSC San Luis Obispo WBC",
        "languages": [ "English","Spanish" ],
        "geographicAreas": "San Luis Obispo, Monterey",
        "hasStatewideService": false,
        "specificCommunities": [2],
        "areasOfService": [1,2,3,4,7,8,5,6,11,12,13],
        "streetAddress": "71 Zaca Lane #131",
        "city": "San Luis Obispo",
        "county": "San Luis Obispo",
        "zipCode": 93401,
        "fullAddress": "71 Zaca Lane #131, San Luis Obispo, CA 93401",
        "latitude": "35.2509659",
        "longitude": "-120.6753417",
        "email": "info@mcscorp.org",
        "website": "https://www.mcscorp.org",
        "phoneNumber": 8055951357
    },
    {
        "id": 51,
        "name": "Mendocino WBC",
        "languages": [ "English","Spanish" ],
        "geographicAreas": "Mendocino",
        "hasStatewideService": false,
		"specificCommunities": [],
        "areasOfService": [1,2,3,4,7,8,5,9,12,13],
        "streetAddress": "345 N Franklin St. ",
        "city": "Fort Bragg",
        "county": "Mendocino",
        "zipCode": 95437,
        "fullAddress": "345 N Franklin St., Fort Bragg, CA 95437",
        "latitude": "39.4448042",
        "longitude": "-123.8046451",
        "email": "info@westcenter.org",
        "website": "https://www.westcenter.org/womens-business-center",
        "phoneNumber": 7079647571,
        "socialMedia": "https://www.facebook.com/Mendowomensbusinesscenter"
    },
    {
        "id": 52,
        "name": "New Economics for Women - Women's Business Center",
        "languages": [ "English","Spanish","Russian","Armenian" ],
        "geographicAreas": "Los Angeles",
        "hasStatewideService": false,
        "specificCommunities": [2],
        "areasOfService": [1,2,4,7,8,5,6,11,12,13],
        "streetAddress": "7500 Alabama Ave",
        "city": "Canoga Park",
        "county": "Los Angeles",
        "zipCode": 91303,
        "fullAddress": "7500 Alabama Ave Canoga Park, CA 91303",
        "latitude": "34.2080185",
        "longitude": "-118.5988327",
        "email": "WBC@neworg.us",
        "website": "https://www.NEW-WBC.ORG",
        "phoneNumber": 2134832060,
        "socialMedia": "https://www.facebook.com/newwbc"
    },
    {
        "id": 53,
        "name": "NorCal PTAC",
        "languages": [ "English","Tagalog" ],
        "geographicAreas": "Alameda, Contra Costa, Del Norte, Humboldt, Marin, Mendocino, Napa, San Francisco, San Mateo, Santa Clara , Shasta, Siskiyou, Solano, Sonoma, Trinity",
        "hasStatewideService": false,
		"specificCommunities": [],
        "areasOfService": [1,2,4,6],
        "streetAddress": "1 Harpst St",
        "city": "Arcata",
        "county": "Humboldt",
        "zipCode": 95521,
        "fullAddress": "1 Harpst St Arcata, CA 95521",
        "latitude": "40.8744392",
        "longitude": "-124.0790979",
        "email": "info@norcalptac org",
        "website": "https://www.norcalptac.org",
        "phoneNumber": 7072677561,
        "socialMedia": "https://www.facebook.com/norcalptac"
    },
    {
        "id": 54,
        "name": "NorCal VBOC",
        "languages": [ "English","Spanish" ],
        "geographicAreas": "Alameda, Alpine, Amador, Butte, Calaveras, Colusa, Contra Costa, Del Norte, El Dorado, Fresno, Glenn, Humboldt, Inyo, Kern, Kings, Lake, Lassen, Los Angeles, Madera, Marin, Mariposa, Mendocino, Merced, Modoc, Mono, Monterey, Napa, Nevada, Placer, Plumas, Sacramento, San Benito, San Francisco, San Joaquin, San Luis Obispo, San Mateo, Santa Clara, Santa Cruz, Shasta, Sierra, Siskiyou, Solano, Sonoma, Stanislaus, Sutter, Tehama, Trinity, Tulare, Tuolumne, Yolo, Yuba",
        "hasStatewideService": false,
        "specificCommunities": [5],
        "areasOfService": [1,2,3,4,5,8,9,10,11,12,13],
        "streetAddress": "490 Chadbourne Rd. Ste# A137",
        "city": "Fairfield",
        "county": "Solano",
        "zipCode": 94534,
        "fullAddress": "490 Chadbourne Rd. Ste# A137, Fairfield, CA 94534",
        "latitude": "38.2347555",
        "longitude": "-122.0842519",
        "website": "https://www.norcalvboc.org/",
        "phoneNumber": "(916) 527-8400",
        "socialMedia": "Facebook: https://www.facebook.com/NorCal-Veterans-Business-Outreach-Center-107546541628022/"
    },
    {
        "id": 55,
        "name": "North Coast SBDC",
        "languages": [ "English","Spanish","Vietnamese","Korean","Japanese","Cantonese","French","German","Farsi","Tagalog","Arabic","Hmong","Russian","Portuguese","American Sign Language" ],
        "geographicAreas": "Humboldt, Del Norte, ",
        "hasStatewideService": false,
        "specificCommunities": [4,1,3,2,5],
        "areasOfService": [1,2,3,4,5,8,9,10,11,12,13],
        "streetAddress": "520 E Street",
        "city": "Eureka",
        "county": "Humboldt",
        "zipCode": 95501,
        "fullAddress": "520 E Street, Eureka, CA 95501",
        "latitude": "40.8011457",
        "longitude": "-124.1693743",
        "website": "https://www.northcoastsbdc.org",
        "phoneNumber": "(707) 445-9720",
        "socialMedia": "Facebook: https://www.facebook.com/NorthCoastSBDC; Twitter: https://twitter.com/northcoastsbdc; Instagram: https://www.instagram.com/northcoastsbdc/; LinkedIn: https://www.linkedin.com/company/northcoastsbdc/"
    },
    {
        "id": 56,
        "name": "North San Diego SBDC",
        "languages": [ "English","Spanish" ],
        "geographicAreas": "San Diego",
        "hasStatewideService": false,
		"specificCommunities": [],
        "areasOfService": [1,2,3,4,7,8,5,6,9,10,11,12,13],
        "streetAddress": "2075 Las Palmas Dr",
        "city": "Carlsbad",
        "county": "San Diego",
        "zipCode": 92011,
        "fullAddress": "2075 Las Palmas Dr Carlsbad, CA 92011",
        "latitude": "33.1169868",
        "longitude": "-117.2769413",
        "email": "centerinfo@miracosta.edu",
        "website": "https://www.SDIVSBDC.org",
        "phoneNumber": 7607958740,
        "socialMedia": "https://www.facebook.com/NORTHSANDIEGOSBDC"
    },
    {
        "id": 57,
        "name": "OCIE SBDC Lead Center",
        "languages": [ "English","Arabic","Armenian","Cantonese","Chieu Chow","Italian","Japanese","Farsi","French","German","Gujarati","Hindi","Korean","Mandarin","Marathi","Russian","Spanish","Urdu","Vietnamese" ],
        "geographicAreas": "Orange, Riverside, San Bernardino",
        "hasStatewideService": false,
		"specificCommunities": [],
        "areasOfService": [1,2,3,4,8,5,10,11,12,13],
        "streetAddress": "1 Banting",
        "city": "Irvine",
        "county": "Orange",
        "zipCode": 92618,
        "fullAddress": "1 Banting, Irvine, CA 92618",
        "latitude": "33.6584298",
        "longitude": "-117.7609751",
        "email": "sbdcsend@gmail.com",
        "website": "https://ociesmallbusiness.org/",
        "phoneNumber": 6572781801,
        "socialMedia": "@ociesbdc"
    },
    {
        "id": 58,
        "name": "Octane - Launchpad SBDC",
        "languages": [ "English","Arabic","Farsi","French","German","Gujarati","Hindi","Marathi","Spanish" ],
        "geographicAreas": "Orange, Inland Empire",
        "hasStatewideService": false,
		"specificCommunities": [],
        "areasOfService": [1,3,5,9],
        "streetAddress": "65 Enterprise",
        "city": "Aliso Viejo",
        "county": "Orange",
        "zipCode": 92656,
        "fullAddress": "65 Enterprise, Aliso Viejo, CA 92656",
        "latitude": "33.582558",
        "longitude": "-117.7298641",
        "email": "jc@octaneoc.org",
        "website": "https://ociesmallbusiness.org/",
        "phoneNumber": 9493306569
    },
    {
        "id": 59,
        "name": "Orange County Hispanic Chamber of Commerce - The Finance Center",
        "languages": [ "English","Spanish" ],
        "geographicAreas": "Orange",
        "hasStatewideService": false,
        "specificCommunities": [4],
        "areasOfService": [1,3,5,9],
        "streetAddress": "5270 California Avenue",
        "city": "Irvine",
        "county": "Orange",
        "zipCode": 92697,
        "fullAddress": "5270 California Avenue, Irvine, CA 92697",
        "latitude": "33.6381195",
        "longitude": "-117.8513591",
        "website": "https://ociesmallbusiness.org/",
        "phoneNumber": "(800) 616-7232"
    },
    {
        "id": 60,
        "name": "Pacific Asian Consortium in Employment",
        "languages": [ "English","Spanish","Korean","Vietnamese","Mandarin","Cantonese","Thai","Taglog","Japanese","Farsi","French","Hindi" ],
        "geographicAreas": "Imperial,  Los Angeles,  Orange,  Riverside,  San Bernardino,  San Diego,  Ventura",
        "hasStatewideService": false,
		"specificCommunities": [],
        "areasOfService": [1,2,3,4,7,8,5,6,9,10,11,12,13],
        "streetAddress": "1055 Wilshire Boulevard, Ste. 900B",
        "city": "Los Angeles, CA",
        "county": "Los Angeles",
        "zipCode": 90017,
        "fullAddress": "1055 Wilshire Boulevard, Ste. 900B, Los Angeles, CA 90017",
        "latitude": "34.0521042",
        "longitude": "-118.2626198",
        "email": "Abarrera@pacela.org",
        "website": "https://www.pacela.org",
        "phoneNumber": 2133539400
    },
    {
        "id": 61,
        "name": "Pacific Coast Regional SBDC",
        "languages": [ "English","Spanish","French","Arabic" ],
        "geographicAreas": "Los Angeles, ",
        "hasStatewideService": false,
		"specificCommunities": [],
        "specificCommunities": [4,1,3,2,5],
        "areasOfService": [1,2,3,4,5,6,7,8,9,10,11,12,13],
        "streetAddress": "3255 Wilshire Blvd. Suite 1501",
        "city": "Los Angeles",
        "county": "Los Angeles",
        "zipCode": 90010,
        "fullAddress": "3255 Wilshire Blvd. Suite 1501, Los Angeles, CA 90010",
        "latitude": "34.062321",
        "longitude": "-118.29319",
        "website": "https://pcrsbdc.org",
        "phoneNumber": "(213) 674-2696",
        "socialMedia": "Instagram @pcrsbdcla Twitter - @pcrsbdc Facebook - @sbdcpcr"
    },
    {
        "id": 62,
        "name": "Pasadena City College SBDC",
        "languages": [ "English","Spanish","Mandarin","Russian","Korean" ],
        "geographicAreas": "Los Angeles, ",
        "hasStatewideService": false,
        "specificCommunities": [4,1,3,2,5],
        "areasOfService": [1,2,3,4,5,6,7,8,9,10,11,12],
        "streetAddress": "Foothill Campus 3035 E Foothill Blvd. Room 122",
        "city": "Pasadena",
        "county": "Los Angeles",
        "zipCode": 91107,
        "fullAddress": "3035 E. Foothill Blvd., Room 122 Pasadena, CA 91107",
        "latitude": "34.15087",
        "longitude": "-118.08624",
        "website": "https://pccsbdc.org",
        "phoneNumber": "(626) 585-3106",
        "socialMedia": "https://www.facebook.com/pasadenasbdc/, @pasadenasbdc"
    },
    {
        "id": 63,
        "name": "Rancho Santiago Community College District - Digital Marketing Lab SBDC",
        "languages": [ "English","Farsi","Korean","Portuguese","Spanish","Vietnamese" ],
        "geographicAreas": "Orange",
        "hasStatewideService": false,
		"specificCommunities": [],
        "areasOfService": [1,2],
        "streetAddress": "1300 S. Bristol St, 2nd Floor",
        "city": "Santa Ana",
        "county": "Orange",
        "zipCode": 92704,
        "fullAddress": "1300 South Bristol Street, Santa Ana, CA 92704",
        "latitude": "33.7295816",
        "longitude": "-117.8852581",
        "website": "https://ociesmallbusiness.org/",
        "phoneNumber": "(800) 616-7232"
    },
    {
        "id": 64,
        "name": "Renaissance East Bay",
        "languages": [ "English" ],
        "geographicAreas": "Alameda,  Contra Costa",
        "hasStatewideService": false,
		"specificCommunities": [],
        "areasOfService": [1,2],
        "streetAddress": "1500 MacDonald Avenue",
        "city": "Richmond",
        "county": "Contra Costa",
        "zipCode": 94801,
        "fullAddress": "1500 MacDonald Avenue, Richmond, CA 94801",
        "latitude": "37.9354737",
        "longitude": "-122.3572709",
        "email": "info@rencenter.org",
        "website": "https://rencenter.org/east-bay",
        "phoneNumber": "(510) 221-2000"
    },
    {
        "id": 65,
        "name": "Renaissance WBC",
        "languages": [ "English","Spanish" ],
        "geographicAreas": "San Francisco",
        "hasStatewideService": false,
        "specificCommunities": [2],
        "areasOfService": [1,2,4,8,5,12,13],
        "streetAddress": "275 5th Street ",
        "city": "San Francisco",
        "county": "San Francisco",
        "zipCode": 94103,
        "fullAddress": "275 5th Street  San Francisco, CA 94103",
        "latitude": "37.7807301",
        "longitude": "-122.4035928",
        "email": "wbc@rencenter.org",
        "website": "https://www.rencenter.org/womens-business-center/",
        "phoneNumber": 4153486227,
        "socialMedia": "https://twitter.com/rencenter_, https://www.instagram.com/rencenter/, https://www.facebook.com/RenaissanceEntrepreneurshipCenter"
    },
    {
        "id": 66,
        "name": "Sacramento Valley SBDC",
        "languages": [ "English" ],
        "geographicAreas": "Sacramento",
        "hasStatewideService": false,
		"specificCommunities": [],
        "areasOfService": [1,2],
        "streetAddress": "1792 Tribute Road, 4th Floor",
        "city": "Sacramento ",
        "county": "Sacramento ",
        "zipCode": 95815,
        "fullAddress": "1792 Tribute Road, 4th Floor, Sacramento, CA 95815",
        "latitude": "38.5982141",
        "longitude": "-121.4478822",
        "website": "https://www.sacramentovalleysbdc.org/",
        "phoneNumber": "(916) 655-2100",
        "socialMedia": "Facebook: https://www.facebook.com/SacValleySBDC; Twitter: https://twitter.com/SacValleySBDC"
    },
    {
        "id": 67,
        "name": "San Diego & Imperial WBC",
        "languages": [ "English","Spanish" ],
        "geographicAreas": "Imperial,  San Diego",
        "hasStatewideService": false,
        "specificCommunities": [2],
        "areasOfService": [1,2,4,8,5,12,13],
        "streetAddress": "880 National City Blvd",
        "city": "National City",
        "county": "San Diego",
        "zipCode": 91950,
        "fullAddress": "880 National City Blvd National City, CA 91950",
        "latitude": "32.6751517",
        "longitude": "-117.1069099",
        "email": "kibarra@swccd.edu",
        "website": "https://www.SanDiegoWBC.org",
        "phoneNumber": 6192166719
    },
    {
        "id": 68,
        "name": "San Diego, Orange, Imperial PTAC",
        "languages": [ "English" ],
        "geographicAreas": "Imperial,  Orange,  San Diego",
        "hasStatewideService": false,
		"specificCommunities": [],
        "areasOfService": [1,2,6],
        "streetAddress": "880 National City Blvd. Ste. 7100",
        "city": "National City",
        "county": "San Diego",
        "zipCode": 91950,
        "fullAddress": "880 National City Blvd. Ste. 7100 National City, CA 91950",
        "latitude": "32.6751517",
        "longitude": "-117.1069099",
        "email": "swcptac@swccd.edu",
        "website": "https://www.socalptac.org",
        "phoneNumber": 6192166671
    },
    {
        "id": 69,
        "name": "San Francisco SBDC",
        "languages": [ "English","Spanish","Vietnamese","Korean","Japanese","Cantonese","French","German","Farsi","Tagalog","Arabic","Hmong","Russian","Portuguese","American Sign Language" ],
        "geographicAreas": "San Francisco, ",
        "hasStatewideService": false,
        "specificCommunities": [4,1,3,2,5],
        "areasOfService": [1,2,3,4,5,8,9,10,11,13,12],
        "streetAddress": "1 South Van Ness 5th Floor",
        "city": "San Francisco",
        "county": "San Francisco",
        "zipCode": 94103,
        "fullAddress": "1650 Mission St., Suite 101A San Francisco, CA 94103",
        "latitude": "37.7719827",
        "longitude": "-122.4195611",
        "website": "https://www.sfsbdc.org",
        "phoneNumber": "(415) 937-7232"
    },
    {
        "id": 70,
        "name": "San Joaquin SBDC",
        "languages": [ "English","Spanish","Vietnamese","Korean","Japanese","Cantonese","French","German","Farsi","Tagalog","Arabic","Hmong","Russian","Portuguese","American Sign Language" ],
        "geographicAreas": "San Joaquin, ",
        "hasStatewideService": false,
		"specificCommunities": [],
        "areasOfService": [1,2],
        "streetAddress": "110 N. San Joaquin Street, Suite 402",
        "city": "Stockton",
        "county": "San Joaquin",
        "zipCode": 95202,
        "fullAddress": "56 S. Lincoln St. Stockton, CA 95203",
        "latitude": "37.9509138",
        "longitude": "-121.296878",
        "website": "https://www.sanjoaquinsbdc.org/",
        "phoneNumber": "(209) 868-1046"
    },
    {
        "id": 71,
        "name": "San Joaquin Valley RDC",
        "languages": [ "English","Spanish","Hmong","Punjabi","Triqui" ],
        "geographicAreas": "Fresno,  Kern,  Kings,  Madera,  Merced,  San Joaquin,  Stanislaus,  Tulare",
        "hasStatewideService": false,
		"specificCommunities": [],
        "areasOfService": [1,2,3,4,8,6,9,12,13],
        "streetAddress": "550 E Shaw Ave, Suite 230",
        "city": "Fresno",
        "county": "Fresno",
        "zipCode": 93710,
        "fullAddress": "550 E Shaw Ave, Suite 230 Fresno, CA 93710",
        "latitude": "36.8092857",
        "longitude": "-119.7783412",
        "email": "jorgL@csufresno.edu",
        "website": "https://www.sjvrdc.com",
        "phoneNumber": 5592780718
    },
    {
        "id": 72,
        "name": "San Joaquin Valley Rural Development Center",
        "languages": [ "English","Spanish","Hmong","Punjabi","Triqui" ],
        "geographicAreas": "Fresno, Kern, Kings, Madera, Merced, San Joaquin, Tulare, Stanislaus, ",
        "hasStatewideService": false,
        "specificCommunities": [4,2,5,1],
        "areasOfService": [1,2,4,5,6,8,7,9,10,12,13],
        "streetAddress": "550 East Shaw Ave Suite 230",
        "city": "Fresno",
        "county": "Fresno",
        "zipCode": 93710,
        "fullAddress": "550 E Shaw Ave, Suite 230 Fresno, CA 93710",
        "latitude": "36.8092857",
        "longitude": "-119.7783412",
        "website": "http://www.fresnostate.edu/academics/oced/initiatives/sjvrdc.html",
        "phoneNumber": "(559) 278-0542"
    },
    {
        "id": 73,
        "name": "San Jose MBDA Business Center",
        "languages": [ "Spanish","Mandarin","Cantonese","Vietnamese","English","Hindi" ],
        "geographicAreas": "Alameda,  Contra Costa,  Fresno,  Kern,  Kings,  Madera,  Marin,  Mariposa,  Merced,  Monterey,  Napa,  San Benito,  San Francisco,  San Mateo,  Santa Clara,  Santa Cruz,  Solano,  Sonoma,  Tulare",
        "hasStatewideService": false,
        "specificCommunities": [4],
        "areasOfService": [1,2,4,5,6,9],
        "streetAddress": "3031 Tisch Way, Suite 80",
        "city": "San Jose",
        "county": "Santa Clara",
        "zipCode": 95128,
        "fullAddress": "3031 Tisch Way, Suite 80 San Jose, CA 95128",
        "latitude": "37.3177477",
        "longitude": "-121.9477554",
        "email": "info@sanjosembdacenter.com",
        "website": "https://www.asianinc.org/businesscenters/sanjose",
        "phoneNumber": 4089988058
    },
    {
        "id": 74,
        "name": "San Mateo SBDC",
        "languages": [ "English","Spanish","Vietnamese","Korean","Japanese","Cantonese","French","German","Farsi","Tagalog","Arabic","Hmong","Russian","Portuguese","American Sign Language" ],
        "geographicAreas": "San Mateo",
        "hasStatewideService": false,
		"specificCommunities": [],
        "areasOfService": [1,2,3,4,7,8,5,6,9,10,11,12,13],
        "streetAddress": "1900 O'Farrell St #380",
        "city": "San Mateo",
        "county": "San Mateo",
        "zipCode": 94404,
        "fullAddress": "Administrative office is located remotely Administrative office is located remotely, CA 94404",
        "latitude": "37.5584469",
        "longitude": "-122.2799822",
        "email": "info@sanmateosbdc.org",
        "website": "https://www.sanmateosbdc.org/",
        "phoneNumber": "(650) 395-9130"
    },
    {
        "id": 75,
        "name": "Santa Cruz SBDC",
        "languages": [ "English","Spanish","Vietnamese","Korean","Japanese","Cantonese","French","German","Farsi","Tagalog","Arabic","Hmong","Russian","Portuguese","American Sign Language" ],
        "geographicAreas": "Santa Cruz, ",
        "hasStatewideService": false,
        "specificCommunities": [4,1,3,2,5],
        "areasOfService": [1,2,3,4,5,8,9,10,11,12,13],
        "streetAddress": "6500 Soquel Drive Building 2100 C",
        "city": "Aptos",
        "county": "Santa Cruz",
        "zipCode": 95003,
        "fullAddress": "6500 Soquel Drive, Aptos, CA 95060",
        "latitude": "36.9876108",
        "longitude": "-121.9259014",
        "website": "https://www.santacruzsbdc.org",
        "phoneNumber": "(831) 479-6136"
    },
    {
        "id": 76,
        "name": "SBDCtech at UC Davis Venture Catalyst",
        "languages": [ "English","Spanish","Vietnamese","Korean","Japanese","Cantonese","French","German","Farsi","Tagalog","Arabic","Hmong","Russian","Portuguese","American Sign Language" ],
        "geographicAreas": "Alameda, Alpine, Amador, Butte, Calaveras, Colusa, Contra Costa, Del Norte, El Dorado, Glenn, Humboldt, Lake, Lassen, Marin, Mendocino, Modoc, Napa, Nevada, Placer, Plumas, Sacramento, San Francisco, San Joaquin, San Mateo, Santa Clara, Santa Cruz, Shasta, Sierra, Siskiyou, Solano, Sonoma, Sutter, Tehama, Trinity, Yolo, Yuba, ",
        "hasStatewideService": false,
		"specificCommunities": [],
        "areasOfService": [1,2,3,9],
        "streetAddress": "1850 Research Park Drive Suite 300",
        "city": "Davis",
        "county": "Yolo",
        "zipCode": 95618,
        "fullAddress": "1850 Research Park Drive Suite 300, Davis, CA 95618",
        "latitude": "38.543175",
        "longitude": "-121.7318034",
        "website": "https://itc.ucdavis.edu",
        "phoneNumber": "(530) 752-8639"
    },
    {
        "id": 77,
        "name": "Shasta-Cascade SBDC",
        "languages": [ "English","Spanish","Vietnamese","Korean","Japanese","Cantonese","French","German","Farsi","Tagalog","Arabic","Hmong","Russian","Portuguese","American Sign Language" ],
        "geographicAreas": "Shasta, Trinity, ",
        "hasStatewideService": false,
        "specificCommunities": [4,1,2,3,5],
        "areasOfService": [1,2,3,4,5,8,9,10,11,12,13],
        "streetAddress": "1305 Sacramento Street",
        "city": "Redding",
        "county": "Shasta",
        "zipCode": 96001,
        "fullAddress": "5800 Airport Rd Redding, CA 96002",
        "latitude": "40.5213546",
        "longitude": "-122.3044517",
        "website": "https://www.sbdcsc.org",
        "phoneNumber": "(530) 222-8323"
    },
    {
        "id": 78,
        "name": "Sierra SBDC",
        "languages": [ "English","Spanish","Vietnamese","Korean","Japanese","Cantonese","French","German","Farsi","Tagalog","Arabic","Hmong","Russian","Portuguese","American Sign Language" ],
        "geographicAreas": "El Dorado, Lassen, Modoc, Nevada, Placer, Plumas, Sierra, ",
        "hasStatewideService": false,
        "specificCommunities": [4,1,3,2,5],
        "areasOfService": [1,2,3,4,5,8,9,10,11,12,13],
        "streetAddress": "10183 Truckee Airport Road Suite 202",
        "city": "Truckee",
        "county": "Nevada",
        "zipCode": 96161,
        "fullAddress": "10183 Truckee Airport Rd,  Truckee, CA 96161",
        "latitude": "39.3168007",
        "longitude": "-120.1462009",
        "website": "https://www.sierrasbdc.com",
        "phoneNumber": "(530) 582-5022"
    },
    {
        "id": 79,
        "name": "Siskiyou SBDC",
        "languages": [ "English","Spanish","Vietnamese","Korean","Japanese","Cantonese","French","German","Farsi","Tagalog","Arabic","Hmong","Russian","Portuguese","American Sign Language" ],
        "geographicAreas": "Siskiyou, ",
        "hasStatewideService": false,
        "specificCommunities": [1,4,3,2,5],
        "areasOfService": [1,2,3,4,5,8,9,10,11,12,13],
        "streetAddress": "1512 S. Oregon Street",
        "city": "Yreka",
        "county": "Siskiyou",
        "zipCode": 96097,
        "fullAddress": "1512 S. Oregon Street, Yreka, CA 96097",
        "latitude": "41.7178604",
        "longitude": "-122.6438702",
        "website": "https://www.siskiyousbdc.org",
        "phoneNumber": "(530) 842-1638"
    },
    {
        "id": 80,
        "name": "Solano-Napa SBDC",
        "languages": [ "English","Spanish","Vietnamese","Korean","Japanese","Cantonese","French","German","Farsi","Tagalog","Arabic","Hmong","Russian","Portuguese","American Sign Language" ],
        "geographicAreas": "Napa, Solano, ",
        "hasStatewideService": false,
        "specificCommunities": [4,1,3,2,5],
        "areasOfService": [1,2,3,4,5,8,9,10,11,12,13],
        "streetAddress": "500 Chadbourne Road",
        "city": "Fairfield",
        "county": "Solano",
        "zipCode": 94534,
        "fullAddress": "500 Chadbourne Road Fairfield, CA 94534",
        "latitude": "38.2358527",
        "longitude": "-122.0818595",
        "website": "https://www.solanosbdc.org",
        "phoneNumber": "(707) 646-1071"
    },
    {
        "id": 81,
        "name": "Sonoma SBDC",
        "languages": [ "English","Spanish","Vietnamese","Korean","Japanese","Cantonese","French","German","Farsi","Tagalog","Arabic","Hmong","Russian","Portuguese","American Sign Language" ],
        "geographicAreas": "Sonoma",
        "hasStatewideService": false,
		"specificCommunities": [],
        "areasOfService": [1,2],
        "streetAddress": "50 Old Courthouse Square, Suite 110",
        "city": "Santa Rosa",
        "county": "Sonoma",
        "zipCode": 95404,
        "fullAddress": "50 Old Courthouse Square, Suite 110, Santa Rosa, CA 95404",
        "latitude": "38.4401594",
        "longitude": "-122.7151488",
        "website": "https://www.sonomasbdc.org/",
        "phoneNumber": "(707) 595-0060"
    },
    {
        "id": 82,
        "name": "South San Diego SBDC",
        "languages": [ "English","Spanish" ],
        "geographicAreas": "San Diego",
        "hasStatewideService": false,
		"specificCommunities": [],
        "areasOfService": [1,2,3,4,7,8,5,9,11,12,13],
        "streetAddress": "880 National City Blvd",
        "city": "National City",
        "county": "San Diego",
        "zipCode": 91950,
        "fullAddress": "880 National City Blvd National City, CA 91950",
        "latitude": "32.6751517",
        "longitude": "-117.1069099",
        "email": "sdsbdc@swccd.edu",
        "website": "https://www.sdivsbdc.org",
        "phoneNumber": 6194826391
    },
    {
        "id": 83,
        "name": "The Brink SBDC",
        "languages": [ "English","Spanish" ],
        "geographicAreas": "San Diego,  Imperial",
        "hasStatewideService": false,
		"specificCommunities": [],
        "areasOfService": [1,2,3,4,8,9],
        "streetAddress": "5998 Alcala Park",
        "city": "San Diego",
        "county": "San Diego",
        "zipCode": 92110,
        "fullAddress": "5998 Alcala Park San Diego, CA 92110",
        "latitude": "32.7716583",
        "longitude": "-117.1915679",
        "email": "sbdc@sandiego.edu",
        "website": "https://www.sdivsbdc.org",
        "phoneNumber": 6192604547
    },
    {
        "id": 84,
        "name": "UC Merced SBDC",
        "languages": [ "English","Spanish","Japanese","Portuguese" ],
        "geographicAreas": "Stanislaus,  Tuolomne,  Mariposa,  Merced,  Madera,  Fresno,  Tulare,  Kings,  Kern,  Inyo,  Mono,  San Luis Obispo,  San Benito,  Monterey",
        "hasStatewideService": false,
		"specificCommunities": [],
        "areasOfService": [1,2,3,4,7,8,5,6,9,10,11,12,13],
        "streetAddress": "1735 M St; Suite 111",
        "city": "Merced",
        "county": "Merced",
        "zipCode": 95340,
        "fullAddress": "1735 M St; Suite 111 Merced, CA 95340",
        "latitude": "37.3028197",
        "longitude": "-120.4846359",
        "email": "jtorres130@ucmerced.edu",
        "website": "http://ucmercedsbdc.com/",
        "phoneNumber": 2092283506
    },
    {
        "id": 85,
        "name": "UCI SBDC @ Beall Applied Innovation Center",
        "languages": [ "English","Arabic","Farsi","French","German","Gujarati","Hindi","Marathi","Spanish" ],
        "geographicAreas": "Orange",
        "hasStatewideService": false,
		"specificCommunities": [],
        "areasOfService": [1,2,3,5,9,12,13],
        "streetAddress": "5141 California Avenue",
        "city": "Irvine",
        "county": "Orange",
        "zipCode": 92697,
        "fullAddress": "5141 California Avenue, Irvine, CA 92697",
        "latitude": "33.6524484",
        "longitude": "-117.831624",
        "email": "julie.cranston@uci.edu",
        "website": "https://ociesmallbusiness.org",
        "phoneNumber": 9498246835
    },
    {
        "id": 86,
        "name": "University of California Riverside - EPIC SBDC",
        "languages": [ "English,Arabic,Farsi,French,German,Gujarati,Hindi,Marathi,Spanish" ],
        "geographicAreas": "Riverside,  San Bernardino",
        "hasStatewideService": false,
		"specificCommunities": [],
        "areasOfService": [1,2,3,8,5,9,11,12,13],
        "streetAddress": "3403 10th Street, suite 120",
        "city": "Riverside",
        "county": "Riverside",
        "zipCode": 92501,
        "fullAddress": "3403 10th Street, suite 120, Riverside, CA 92501",
        "latitude": "33.9788095",
        "longitude": "-117.374629",
        "email": "scott.brovsky@ucr.edu",
        "website": "https://ociesmallbusiness.org",
        "phoneNumber": 9514685026
    },
    {
        "id": 87,
        "name": "University of La Verne SBDC",
        "languages": [ "English","Dutch","Afrikaans","Flemish" ],
        "geographicAreas": "Los Angeles, ",
        "hasStatewideService": false,
        "specificCommunities": [4,1,3,2,5],
        "areasOfService": [1,2,3,4,5,6,7,8,9,10,11,12],
        "streetAddress": "2180 Third Street",
        "city": "La Verne",
        "county": "Los Angeles",
        "zipCode": 91750,
        "fullAddress": "2180 Third Street La Verne, CA 91750",
        "latitude": "34.0998387",
        "longitude": "-117.7689012",
        "website": "https://lavernesbdc.org",
        "phoneNumber": "(909) 448-1567"
    },
    {
        "id": 88,
        "name": "Valley Community SBDC",
        "languages": [ "English","Spanish","Zapotec","Hmong","Punjabi" ],
        "geographicAreas": "Fresno,  Madera,  Tulare,  Kings",
        "hasStatewideService": false,
		"specificCommunities": [],
        "areasOfService": [1,2,3,4,8,6,10,12,13],
        "streetAddress": "390B West Fir Avenue #300",
        "city": "Clovis",
        "county": "Fresno",
        "zipCode": 93611,
        "fullAddress": "390B West Fir Avenue #300 Clovis, CA 93611",
        "latitude": "36.8379064",
        "longitude": "-119.7175376",
        "email": "VCSBDC@cloviscollege.edu",
        "website": "https://www.valleycommunitysbdc.com",
        "phoneNumber": 5593246403
    },
    {
        "id": 89,
        "name": "Valley Sierra SBDC",
        "languages": [ "Spanish","English","Mandarin","Vietnamese","Farsi","Pasto","Dari","Hindi","Punjabi","Marat" ],
        "geographicAreas": "Stanislaus, Tuolomne",
        "hasStatewideService": false,
		"specificCommunities": [],
        "areasOfService": [1,2,3,4,8,5,6,9,10,11,12,13,7],
        "streetAddress": "1625 I Street",
        "city": "Modesto",
        "county": "Stanislaus",
        "zipCode": 95350,
        "fullAddress": "1625 I Street Modesto, CA 95350",
        "latitude": "37.6446385",
        "longitude": "-120.9928892",
        "email": "kwinders@opportunitystanislaus.com",
        "website": "https://www.ValleySierraSBDC.com",
        "phoneNumber": 2094226416
    },
    {
        "id": 90,
        "name": "Women's Economic Ventures",
        "languages": [ "English","Spanish" ],
        "geographicAreas": "Santa Barbara",
        "hasStatewideService": false,
        "specificCommunities": [2],
        "areasOfService": [1,2,3,4,8,5,12,13,7],
        "streetAddress": "333 South Salinas Street ",
        "city": "Santa Barbara",
        "county": "Santa Barbara",
        "zipCode": 93103,
        "fullAddress": "333 South Salinas Street  Santa Barbara, CA 93103",
        "latitude": "34.423559",
        "longitude": "-119.668479",
        "email": "info@wevonline.org",
        "website": "https://WWW.WEVONLINE.ORG",
        "phoneNumber": 8059656073
    },
    {
        "id": 91,
        "name": "Women's Business Center at JEDI",
        "languages": [ "English" ],
        "geographicAreas": "Siskiyou",
        "hasStatewideService": false,
        "specificCommunities": [2],
        "areasOfService": [1,2,4,8,5,6,10,12,13],
        "streetAddress": "205 Chestnut Street",
        "city": "Mt Shasta",
        "county": "Siskiyou",
        "zipCode": 96067,
        "fullAddress": "205 Chestnut Street Mt Shasta, CA 96067",
        "latitude": "41.3135852",
        "longitude": "-122.3114344",
        "email": "info@e-jedi.org",
        "website": "https://www.e-jedi.org",
        "phoneNumber": 5303198560,
        "socialMedia": "Facebook: https://www.facebook.com/WomensBusinessCenteratJedi/; Twitter: https://twitter.com/ejediorg"
    }
]